City_ID,City,Lat,Lng,Max Temp,Humidity,Cloudiness,Wind Speed,Country,Date
0,isafjordur,66.0755,-23.124,1.02,64,75,2.57,IS,1728910266
1,lorengau,-2.0226,147.2712,27.72,78,49,1.54,PG,1728910268
2,lebu,-37.6167,-73.65,11.43,80,1,4.88,CL,1728910066
3,tolanaro,-25.0319,46.9987,26.04,73,20,11.83,MG,1728910270
4,bandundu,-3.3167,17.3667,26.69,80,100,1.59,CD,1728910272
5,atafu village,-8.5421,-172.5159,28.12,74,32,6.19,TK,1728910273
6,albany,42.6001,-73.9662,7.93,81,100,0.89,US,1728910173
7,port-aux-francais,-49.35,70.2167,2.46,67,30,12.75,TF,1728910275
8,kota,25.1833,75.8333,28.47,56,84,3.05,IN,1728910276
9,flying fish cove,-10.4217,105.6791,25.82,88,75,4.12,CX,1728910222
10,waitangi,-43.9535,-176.5597,11.01,96,100,1.79,NZ,1728910278
11,selfoss,63.9331,-20.9971,2.25,43,93,3.15,IS,1728910279
12,anadyr,64.75,177.4833,-3.72,85,100,2.0,RU,1728910280
13,adamstown,-25.066,-130.1015,20.65,83,100,10.6,PN,1728910282
14,papatowai,-46.5619,169.4708,6.84,85,86,5.28,NZ,1728910283
15,east london,-33.0153,27.9116,19.52,63,40,11.83,ZA,1728910285
16,qarazhal,48.0078,70.7903,8.18,59,100,3.39,KZ,1728910286
17,edinburgh of the seven seas,-37.0676,-12.3116,13.71,94,100,13.47,SH,1728910287
18,sisimiut,66.9395,-53.6735,0.62,66,54,2.03,GL,1728910288
19,puerto natales,-51.7236,-72.4875,9.25,61,75,2.06,CL,1728910289
20,beau vallon,-20.4189,57.6953,24.13,69,40,5.66,MU,1728910290
21,stanley,54.868,-1.6985,11.01,63,0,1.54,GB,1728910291
22,suklayin,15.7574,121.5503,25.45,95,100,0.36,PH,1728910292
23,jinchang,38.4953,102.1739,15.95,34,100,1.6,CN,1728910293
24,saint-felicien,48.6501,-72.4491,2.38,100,100,3.6,CA,1728910294
25,olonkinbyen,70.9221,-8.7187,-2.15,88,100,7.88,SJ,1728910295
26,newman,37.3138,-121.0208,15.03,86,0,1.36,US,1728910296
27,ushuaia,-54.8,-68.3,8.81,57,20,1.03,AR,1728910198
28,port mathurin,-19.6833,63.4167,22.69,75,32,9.38,MU,1728910298
29,thompson,55.7435,-97.8558,-7.91,100,20,0.0,CA,1728910277
30,homer,59.6425,-151.5483,6.94,76,20,0.0,US,1728910301
31,ilulissat,69.2167,-51.1,0.01,80,75,6.17,GL,1728910302
32,bredasdorp,-34.5322,20.0403,18.23,45,6,7.0,ZA,1728910303
33,constantia,44.1833,28.65,20.39,52,100,4.7,RO,1728910270
34,karratha,-20.7377,116.8463,31.21,16,3,8.1,AU,1728910306
35,ad dilam,23.9915,47.1627,37.28,10,0,1.44,SA,1728910307
36,pisco,-13.7,-76.2167,18.9,88,75,1.03,PE,1728910308
37,karkira,36.9292,6.5856,34.26,31,81,1.67,DZ,1728910309
38,lahad datu,5.0268,118.327,26.68,83,10,2.4,MY,1728910310
39,suntar,62.1444,117.6319,-4.89,83,100,4.17,RU,1728910311
40,cill airne,52.05,-9.5167,12.03,87,100,1.03,IE,1728910312
41,san luis de la loma,17.2706,-100.8939,24.67,80,20,2.19,MX,1728910313
42,lihue,21.9789,-159.3672,25.77,65,20,6.17,US,1728910314
43,magong,23.5654,119.5863,25.95,90,52,6.25,TW,1728910315
44,mount pearl,47.5166,-52.7813,8.97,81,75,8.23,CA,1728910317
45,londa,15.4691,74.5191,22.84,89,100,0.65,IN,1728910318
46,tulun,54.5611,100.5792,-2.77,51,25,1.99,RU,1728910319
47,talnakh,69.4865,88.3972,-14.13,94,76,5.16,RU,1728910320
48,waddan,29.1614,16.139,31.26,29,0,3.09,LY,1728910323
49,rongelap,11.1635,166.8941,28.5,78,38,7.75,MH,1728910324
50,guiuan,11.0333,125.7247,28.9,78,100,4.24,PH,1728910325
51,egersund,58.4513,5.9997,9.3,57,99,6.58,NO,1728910326
52,ribeira grande,38.5167,-28.7,21.54,94,75,5.66,PT,1728910327
53,tarawa,1.419,172.984,28.05,78,20,4.12,KI,1728910328
54,hermanus,-34.4187,19.2345,18.22,55,0,9.44,ZA,1728910329
55,mata-utu,-13.2816,-176.1745,27.24,79,100,7.27,WF,1728910332
56,castillos,-34.1667,-53.8333,18.12,77,100,5.12,UY,1728910333
57,abu zabad,12.35,29.25,34.54,31,60,1.55,SD,1728910334
58,bethel,41.3712,-73.414,10.01,87,100,1.54,US,1728910072
59,bozova,37.3625,38.5267,28.53,34,8,2.65,TR,1728910336
60,turuntayevo,52.2,107.6167,-4.32,64,80,0.88,RU,1728910337
61,puerto ayora,-0.7393,-90.3518,19.75,99,77,3.13,EC,1728910338
62,kruisfontein,-34.0033,24.7314,18.24,48,24,8.86,ZA,1728910339
63,onguday,50.75,86.15,-2.84,98,72,1.19,RU,1728910340
64,cabo san lucas,22.8909,-109.9124,26.53,70,0,3.75,MX,1728910341
65,grytviken,-54.2811,-36.5092,2.04,95,53,5.35,GS,1728910342
66,maceio,-9.6658,-35.7353,28.69,65,75,4.12,BR,1728910343
67,tiksi,71.6872,128.8694,-12.44,86,100,6.66,RU,1728910344
68,hilo,19.7297,-155.09,22.84,98,100,2.24,US,1728910184
69,at taj,24.2049,23.2857,36.13,15,0,2.86,LY,1728910347
70,invercargill,-46.4,168.35,8.34,76,88,4.92,NZ,1728910348
71,puerto rico,-26.796,-55.024,28.13,51,100,2.78,AR,1728910349
72,dryden,49.7833,-92.7503,0.16,93,100,1.03,CA,1728910337
73,iqaluit,63.7506,-68.5145,-1.15,86,100,5.14,CA,1728910351
74,ola,59.5833,151.2833,2.71,85,100,2.27,RU,1728910352
75,ust'-uda,54.1742,103.0304,-2.96,52,39,1.63,RU,1728910353
76,punta arenas,-53.15,-70.9167,8.06,76,75,6.17,CL,1728909956
77,mezhdurechenskiy,59.6,65.9333,1.78,74,100,1.53,RU,1728910355
78,urengoy,65.9667,78.3667,-0.61,89,13,6.98,RU,1728910356
79,chongwe,-15.3292,28.682,31.51,24,99,1.44,ZM,1728910357
80,wailua homesteads,22.0669,-159.378,25.44,65,20,6.17,US,1728910359
81,ebaye,8.7748,167.7392,28.01,83,40,4.12,MH,1728910362
82,sai buri,6.7013,101.6168,27.03,80,98,0.47,TH,1728910363
83,fort bragg,35.139,-79.006,18.79,80,0,3.6,US,1728910127
84,volodarskiy,46.4013,48.5409,9.0,46,98,6.25,RU,1728910365
85,axim,4.8699,-2.2405,28.27,70,46,3.68,GH,1728910366
86,saudarkrokur,65.7461,-19.6394,-1.15,57,0,2.16,IS,1728910368
87,severo-yeniseyskiy,60.3725,93.0408,-4.62,95,94,3.51,RU,1728910369
88,burgersdorp,-30.9977,26.3286,19.6,50,100,11.19,ZA,1728910370
89,la ronge,55.1001,-105.2842,5.14,87,0,3.09,CA,1728910371
90,kapuskasing,49.4169,-82.4331,1.05,100,100,4.12,CA,1728910372
91,kayangel,8.0823,134.7173,28.85,72,70,1.75,PW,1728910373
92,boticas,41.6758,-7.716,18.97,62,84,4.48,PT,1728910374
93,mugia,43.1041,-9.2179,21.62,81,100,1.08,ES,1728910375
94,tanumah,27.1,44.1333,36.03,8,0,2.29,SA,1728910378
95,utrik,11.2278,169.8474,28.42,80,66,8.75,MH,1728910379
96,laascaanood,8.4774,47.3597,29.59,44,24,7.68,SO,1728910380
97,sarakhs,36.5449,61.1577,23.49,30,4,4.07,IR,1728910381
98,gadzhiyevo,69.2551,33.3362,5.11,88,100,3.97,RU,1728910382
99,vilyuchinsk,52.9306,158.4028,6.15,80,86,4.27,RU,1728910383
100,pervomayskoye,43.919,46.7102,13.35,63,100,7.39,RU,1728910384
101,bilibino,68.0546,166.4372,-6.32,96,100,0.8,RU,1728910385
102,ouadda,8.0777,22.4007,28.27,65,57,1.37,CF,1728910386
103,benghazi,32.1167,20.0667,24.85,61,0,6.79,LY,1728910387
104,moyynkum,44.2914,72.9469,11.2,90,100,1.12,KZ,1728910388
105,achinsk,56.2694,90.4993,-0.13,48,100,3.6,RU,1728910389
106,saipan,15.1355,145.701,28.39,83,0,2.57,MP,1728910390
107,vadso,70.0744,29.7487,6.09,75,75,8.23,NO,1728910391
108,nuuk,64.1835,-51.7216,1.34,80,0,1.03,GL,1728910392
109,khandyga,62.6667,135.6,-10.47,98,97,0.75,RU,1728910393
110,blackmans bay,-43.0167,147.3167,3.74,89,0,0.45,AU,1728910395
111,al mutayrifi,25.4788,49.5576,39.19,14,0,3.75,SA,1728910396
112,changling,44.2653,124.0005,10.49,47,85,6.88,CN,1728910397
113,pitimbu,-7.4706,-34.8086,27.59,66,47,7.33,BR,1728910398
114,great falls,47.5002,-111.3008,11.66,54,0,5.66,US,1728910399
115,san patricio,28.017,-97.5169,15.97,82,0,2.35,US,1728910400
116,island harbour,50.724,-1.2758,16.12,63,69,3.13,GB,1728910402
117,tazovsky,67.4667,78.7,1.49,91,98,9.49,RU,1728910403
118,remire-montjoly,4.9167,-52.2667,31.02,66,75,3.6,GF,1728910404
119,dois corregos,-22.3661,-48.3803,26.71,47,94,4.49,BR,1728910405
120,smithers,54.7804,-127.1743,8.18,100,100,1.03,CA,1728910406
121,college,64.8569,-147.8028,0.09,90,100,0.0,US,1728910407
122,lakhimpur,27.95,80.7667,23.93,59,36,1.87,IN,1728910409
123,badger,64.8,-147.5333,-0.86,92,100,0.0,US,1728910410
124,urucui,-7.2294,-44.5561,35.23,26,10,4.18,BR,1728910411
125,fort mcmurray,56.7268,-111.381,7.77,61,100,4.12,CA,1728910412
126,coronel dorrego,-38.7187,-61.2873,21.1,56,23,7.42,AR,1728910413
127,east ballina,-28.8667,153.5833,18.42,73,100,4.26,AU,1728910414
128,tsiombe,-25.3,45.4833,30.94,32,77,6.55,MG,1728910415
129,alice springs,-23.7,133.8833,26.75,36,100,3.09,AU,1728910416
130,aykhal,66.0,111.5,-8.51,94,100,6.44,RU,1728910417
131,nagqu,31.5,92.0,3.47,36,100,2.48,CN,1728910418
132,west island,-12.1568,96.8225,26.99,83,75,5.14,CC,1728910419
133,sao paulo de olivenca,-3.3783,-68.8725,28.8,63,98,0.4,BR,1728910420
134,port elizabeth,-33.918,25.5701,19.16,77,20,9.26,ZA,1728910421
135,moree,-29.4667,149.85,14.93,96,100,4.48,AU,1728910422
136,udachny,66.4167,112.4,-8.0,93,100,5.71,RU,1728910423
137,laguna,38.421,-121.4238,16.09,88,0,2.06,US,1728910424
138,richards bay,-28.783,32.0377,20.77,82,100,8.11,ZA,1728910425
139,argo,37.6333,22.7333,26.0,49,57,2.75,GR,1728910427
140,yellowknife,62.456,-114.3525,5.79,100,75,3.6,CA,1728910428
141,nacala,-14.5428,40.6728,29.62,61,75,5.14,MZ,1728910429
142,hengyang,26.8881,112.615,20.11,88,100,1.17,CN,1728910430
143,jamestown,42.097,-79.2353,5.01,99,100,5.66,US,1728910431
144,katsuura,35.1333,140.3,22.08,68,100,6.09,JP,1728910432
145,ust-nera,64.5667,143.2,-10.21,98,88,3.58,RU,1728910433
146,metairie,29.9841,-90.1528,21.67,85,0,0.89,US,1728910434
147,coquimbo,-29.9533,-71.3436,11.85,100,100,1.54,CL,1728910132
148,fortaleza,-3.7227,-38.5247,28.93,82,75,8.75,BR,1728910299
149,sandnessjoen,66.0217,12.6316,6.06,81,75,5.14,NO,1728910438
150,sarupathar,26.1984,93.8094,22.37,94,8,1.3,IN,1728910439
151,keflavik,64.0049,-22.5624,3.24,52,0,1.54,IS,1728910440
152,palmer,42.1584,-72.3287,8.8,81,100,2.06,US,1728910382
153,hargeysa,9.56,44.065,29.29,24,29,6.14,SO,1728910442
154,coahuayana de hidalgo,18.7,-103.6583,23.75,82,46,1.29,MX,1728910443
155,westport,41.1415,-73.3579,10.71,87,100,2.06,US,1728910444
156,vyazemskiy,47.5378,134.7525,16.6,61,100,7.54,RU,1728910445
157,maloyaroslavets,55.0146,36.4719,-0.06,97,100,4.79,RU,1728910446
158,brezina,33.0989,1.2608,27.45,30,43,6.65,DZ,1728910447
159,kodiak,57.79,-152.4072,7.73,87,75,5.66,US,1728910238
160,aasiaat,68.7098,-52.8699,-2.18,87,86,1.29,GL,1728910449
161,enniskillen,54.3461,-7.6413,12.57,72,100,2.24,GB,1728910450
162,xai-xai,-25.0519,33.6442,29.24,46,0,6.63,MZ,1728910451
163,penzance,50.1186,-5.5371,14.38,100,75,4.12,GB,1728910452
164,okha,53.5739,142.9478,8.61,79,100,6.05,RU,1728910453
165,plastun,44.7561,136.2939,10.83,96,10,1.42,RU,1728910454
166,sefaatli,39.5043,34.7563,20.59,42,100,3.73,TR,1728910456
167,enewetak,11.3474,162.3373,28.49,78,100,5.04,MH,1728910457
168,talata mafara,12.5732,6.0597,33.57,39,50,1.26,NG,1728910458
169,whitehorse,60.7161,-135.0538,3.43,84,75,6.71,CA,1728910459
170,kenai,60.5544,-151.2583,6.19,89,0,2.57,US,1728910460
171,longyearbyen,78.2186,15.6401,3.91,75,40,7.72,SJ,1728910461
172,acarau,-2.8856,-40.12,31.14,53,0,8.11,BR,1728910462
173,lata,40.1629,-8.3327,27.49,51,51,3.53,PT,1728910463
174,nantucket,41.2835,-70.0995,18.41,94,0,9.48,US,1728910464
175,selibaby,15.159,-12.1829,34.59,37,100,4.1,MR,1728910465
176,belyy yar,53.6039,91.3903,-5.06,86,0,0.0,RU,1728910466
177,temple,31.0982,-97.3428,17.95,63,0,3.6,US,1728910266
178,junin de los andes,-39.9504,-71.0694,11.35,55,0,2.29,AR,1728910468
179,big bear lake,34.2439,-116.9114,9.16,30,0,1.14,US,1728910469
180,hawaiian paradise park,19.5933,-154.9731,22.72,99,100,0.0,US,1728910470
181,kirkwall,58.9848,-2.9587,11.09,87,75,5.66,GB,1728910472
182,brokopondo,4.75,-55.1667,27.54,67,60,2.42,SR,1728910473
183,kuanda,56.3161,116.0806,-12.52,80,12,0.49,RU,1728910474
184,inarajan village,13.2736,144.7484,27.54,91,100,2.52,GU,1728910475
185,bel ombre,-4.6167,55.4167,29.91,66,40,4.63,SC,1728910476
186,chonchi,-42.6128,-73.8092,10.62,67,13,0.84,CL,1728910477
187,tucurui,-3.7661,-49.6725,33.33,41,9,2.79,BR,1728910275
188,vernon,50.2581,-119.2691,8.74,76,100,3.09,CA,1728910479
189,coxen hole,16.3244,-86.5366,25.6,83,40,2.06,HN,1728910480
190,mossel bay,-34.1831,22.146,17.96,52,67,4.62,ZA,1728910404
191,center,31.5107,-96.4247,17.36,69,0,2.57,US,1728910482
192,thanh hoa,19.8,105.7667,25.37,87,3,1.32,VN,1728910483
193,georgetown,5.4112,100.3354,29.97,75,20,1.54,MY,1728910365
194,bardejov,49.2918,21.2727,14.04,39,54,2.49,SK,1728910485
195,furstenberg,53.1833,13.15,11.83,57,100,3.99,DE,1728910486
196,jayapura,-2.5333,140.7,24.66,92,97,1.55,ID,1728910487
197,ketchikan,55.3422,-131.6461,9.32,93,100,3.6,US,1728910299
198,laishevo,55.4046,49.5504,8.12,36,7,4.29,RU,1728910490
199,nemuro,43.3236,145.575,14.61,81,100,7.06,JP,1728910491
200,sittwe,20.15,92.9,28.56,79,10,4.19,MM,1728910492
201,cape coast,5.1053,-1.2466,27.7,72,32,3.6,GH,1728910493
202,altai,46.3722,96.2583,3.62,39,100,1.89,MN,1728910494
203,hinton,53.4001,-117.5857,7.78,74,99,2.78,CA,1728910495
204,melekeok village,7.4957,134.6367,26.31,89,75,2.06,PW,1728910496
205,bandar lampung,-5.4254,105.258,24.45,90,100,1.11,ID,1728910497
206,kiruna,67.8557,20.2251,1.51,87,75,3.09,SE,1728910417
207,mount isa,-20.7333,139.5,20.87,68,100,1.03,AU,1728910499
208,bintulu,3.1667,113.0333,26.23,100,40,1.03,MY,1728910500
209,millville,39.4021,-75.0393,20.1,74,100,1.54,US,1728910501
210,trairi,-3.2778,-39.2689,30.7,52,0,7.03,BR,1728910297
211,lompoc,34.6391,-120.4579,14.83,90,100,3.09,US,1728910503
212,dongcun,36.7767,121.1597,17.88,94,15,2.55,CN,1728910505
213,orosi,36.5449,-119.2873,16.34,89,0,2.57,US,1728910506
214,apt,43.8833,5.4,22.16,64,100,1.71,FR,1728910279
215,arteche,12.2645,125.4048,27.07,84,100,1.41,PH,1728910509
216,bathsheba,13.2167,-59.5167,31.34,70,75,6.69,BB,1728910510
217,beira,-19.8436,34.8389,30.05,66,0,6.26,MZ,1728910511
218,blackwater,-23.5833,148.8833,17.01,88,65,1.84,AU,1728910512
219,berezovyy,51.6667,135.7,8.91,73,92,2.18,RU,1728910513
220,klyuchi,52.2667,79.1667,-2.54,72,12,3.16,RU,1728910514
221,carutapera,-1.195,-46.02,30.62,58,2,4.94,BR,1728910515
222,lincolnshire,53.1667,-0.25,13.03,62,75,4.63,GB,1728910294
223,tezu,27.9167,96.1667,22.22,68,4,1.82,IN,1728910517
224,kasganj,27.8167,78.65,28.01,34,92,1.59,IN,1728910518
225,paphos,34.7667,32.4167,28.46,65,20,2.57,CY,1728910519
226,ancud,-41.8697,-73.8203,10.41,77,6,0.97,CL,1728910520
227,troitsko-pechorsk,62.7084,56.1964,0.69,73,100,3.19,RU,1728910521
228,kendari,-3.945,122.4989,25.03,91,100,0.46,ID,1728910523
229,tofol,5.3248,163.0078,28.95,75,100,6.03,FM,1728910524
230,codrington,-38.2667,141.9667,10.79,88,6,5.25,AU,1728910525
231,nova vicosa,-17.8919,-39.3719,26.65,66,71,6.43,BR,1728910526
232,kamyshlov,56.8428,62.7111,0.28,71,36,0.29,RU,1728910527
233,vila franca do campo,37.7167,-25.4333,22.23,99,86,4.87,PT,1728910528
234,auki,-8.7676,160.7034,25.11,91,89,1.43,SB,1728910529
235,ar rutbah,33.0381,40.2848,30.89,19,9,2.22,IQ,1728910530
236,tarija,-21.5355,-64.7296,22.95,68,0,1.54,BO,1728910531
237,touros,-5.1989,-35.4608,29.72,52,17,6.74,BR,1728910532
238,hamilton,39.1834,-84.5333,9.67,68,0,8.49,US,1728910162
239,essaouira,31.5125,-9.77,20.9,78,61,9.7,MA,1728910534
240,las heras,-46.5419,-68.9359,10.63,50,0,6.71,AR,1728910535
241,praia da vitoria,38.7333,-27.0667,21.14,88,75,5.61,PT,1728910536
242,tindouf,27.6711,-8.1474,24.25,41,40,5.14,DZ,1728910537
243,nova sintra,14.8667,-24.7167,27.13,80,62,4.54,CV,1728910538
244,harstad,68.799,16.5293,5.09,87,44,8.94,NO,1728910540
245,ampliacion colonia lazaro cardenas,28.3833,-105.6167,14.53,33,0,2.2,MX,1728910541
246,chinde,26.8212,87.7095,21.5,85,20,1.87,NP,1728910542
247,trail,49.0998,-117.7022,9.29,74,30,0.92,CA,1728910543
248,yei,4.095,30.6779,25.52,79,68,0.74,SS,1728910544
249,mount gambier,-37.8333,140.7667,9.98,85,36,3.21,AU,1728910545
250,chamical,-30.36,-66.314,22.88,56,32,4.45,AR,1728910546
251,sinabang,2.4803,96.3801,26.44,83,100,4.54,ID,1728910547
252,salinopolis,-0.6136,-47.3561,29.09,67,72,6.1,BR,1728910548
253,crucecita,-28.95,-58.9833,26.64,58,100,3.35,AR,1728910549
254,luanda,-8.8368,13.2343,25.03,77,69,5.17,AO,1728910294
255,petropavlovsk-kamchatsky,53.0452,158.6483,5.33,61,20,4.0,RU,1728910552
256,qaqortoq,60.7167,-46.0333,4.12,42,27,3.01,GL,1728910553
257,chifeng,42.2683,118.9636,9.91,47,0,3.32,CN,1728910554
258,al 'aziziyah,32.9058,45.0616,38.39,10,5,3.12,IQ,1728910555
259,gagarawa,12.4074,9.5277,34.37,34,19,1.24,NG,1728910556
260,afif,23.9065,42.9172,33.59,9,1,2.86,SA,1728910557
261,uturoa,-16.7333,-151.4333,24.99,65,96,3.28,PF,1728910558
262,tamanrasset,22.785,5.5228,31.95,12,40,5.66,DZ,1728910561
263,kyzyl-suu,42.3414,78.0056,12.66,49,84,1.42,KG,1728910562
264,margaret river,-33.95,115.0667,13.86,82,54,6.51,AU,1728910563
265,kanker,20.2719,81.4931,24.94,85,56,2.12,IN,1728910564
266,annaba,36.9,7.7667,31.98,43,75,5.14,DZ,1728910565
267,karachi,24.9056,67.0822,32.9,31,75,3.09,PK,1728910537
268,mazamari,-11.3258,-74.5308,22.14,88,98,0.74,PE,1728910562
269,koson,39.0375,65.585,15.72,50,100,4.65,UZ,1728910568
270,hami,42.8,93.45,18.4,24,42,2.06,CN,1728910569
271,kongolo,-5.3833,27.0,28.94,61,25,3.36,CD,1728910570
272,cabinda,-5.55,12.2,28.08,78,75,5.14,AO,1728910571
273,akhalk'alak'i,41.4051,43.4863,12.72,64,94,3.01,GE,1728910572
274,gornopravdinsk,60.05,69.9,0.76,87,96,0.71,RU,1728910573
275,kuta,-8.7233,115.1723,27.97,89,40,3.09,ID,1728910574
276,abalak,58.1286,68.5944,0.93,67,26,1.45,RU,1728910576
277,de aar,-30.6497,24.0123,27.82,24,98,8.34,ZA,1728910577
278,benguela,-12.5763,13.4055,26.39,70,48,5.16,AO,1728910578
279,muswellbrook,-32.2667,150.9,14.38,99,100,1.61,AU,1728910579
280,ust'-kulom,61.6864,53.6902,1.51,63,49,2.55,RU,1728910580
281,ugoofaaru,5.6667,73.0,27.61,81,100,5.93,MV,1728910582
282,aleg,17.0481,-13.9209,39.02,17,7,2.59,MR,1728910583
283,otjimbingwe,-22.35,16.1333,36.14,12,88,1.64,NA,1728910584
284,nuriootpa,-34.4833,139.0,16.08,77,100,5.21,AU,1728910585
285,valparaiso,-33.0393,-71.6273,17.22,66,0,4.12,CL,1728910439
286,motueka,-41.1333,173.0167,8.94,90,12,1.86,NZ,1728910587
287,rurrenabaque,-14.4413,-67.5278,25.94,78,40,2.06,BO,1728910588
288,tabuk,17.4189,121.4443,24.52,89,100,1.37,PH,1728910590
289,vorgashor,67.5833,63.95,0.11,97,100,3.86,RU,1728910591
290,gorontalo,0.5412,123.0595,25.53,91,94,0.86,ID,1728910593
291,juneau,58.3019,-134.4197,8.01,95,75,6.17,US,1728910594
292,al ghayzah,16.2079,52.176,32.65,43,92,4.86,YE,1728910595
293,undurkhaan,47.3194,110.6556,-6.46,79,2,0.92,MN,1728910596
294,amarante,-6.2411,-42.8547,35.71,30,1,3.38,BR,1728910598
295,bangor,54.6534,-5.669,13.38,71,90,3.6,GB,1728910424
296,kalampaka,39.7044,21.6269,25.22,34,56,1.21,GR,1728910600
297,gebeit,21.0667,36.3167,34.39,21,97,7.14,SD,1728910602
298,mahibadhoo,3.7833,72.9667,27.75,78,100,6.0,MV,1728910603
299,port lincoln,-34.7333,135.8667,16.2,85,100,5.82,AU,1728910604
300,la mana,-0.9333,-79.2167,24.25,84,86,0.68,EC,1728910605
301,crane,31.3974,-102.3501,18.83,35,10,4.72,US,1728910606
302,vorkuta,67.5,64.0,0.27,97,100,3.98,RU,1728910607
303,dudinka,69.4058,86.1778,-13.16,95,45,3.0,RU,1728910609
304,cidreira,-30.1811,-50.2056,20.5,74,79,10.3,BR,1728910610
305,kavieng,-2.5744,150.7967,28.46,78,100,4.62,PG,1728910611
306,fale old settlement,-9.3852,-171.2468,27.43,79,30,5.81,TK,1728910612
307,plettenberg bay,-34.0527,23.3716,16.91,56,72,5.14,ZA,1728910613
308,berdigestyakh,62.0989,126.6992,-16.76,99,60,1.02,RU,1728910614
309,santa cruz,-17.8,-63.1667,27.03,69,40,7.72,BO,1728910616
310,hammerfest,70.6634,23.6821,6.25,75,75,1.03,NO,1728910617
311,kingston,17.997,-76.7936,28.53,74,20,0.51,JM,1728910555
312,korla,41.7597,86.1469,18.98,32,68,2.86,CN,1728910619
313,johnstown,40.3267,-78.922,9.8,77,100,7.2,US,1728910620
314,la'ie,21.6477,-157.9253,24.66,93,75,3.13,US,1728910621
315,prince george,53.9166,-122.753,15.69,57,100,4.63,CA,1728910622
316,ilha de mocambique,-15.0342,40.7358,26.43,73,43,9.74,MZ,1728910623
317,vilhena,-12.7406,-60.1458,23.12,78,0,4.63,BR,1728910624
318,tura,25.5198,90.2201,21.75,93,3,1.18,IN,1728910625
319,conception bay south,47.4999,-52.9981,9.3,82,6,6.4,CA,1728910626
320,angaur state,6.906,134.13,28.5,75,100,1.96,PW,1728910627
321,namibe,-15.1961,12.1522,24.73,73,18,5.81,AO,1728910628
322,songea,-10.6833,35.65,30.64,29,40,1.54,TZ,1728910506
323,taoudenni,22.6783,-3.9836,38.57,14,12,6.03,ML,1728910630
324,dwarka,22.2394,68.9678,29.77,71,93,2.72,IN,1728910631
325,nikolayevsk-on-amure,53.1406,140.73,7.22,75,100,2.36,RU,1728910632
326,avarua,-21.2078,-159.775,21.03,68,97,1.54,CK,1728910633
327,vielha,42.6846,0.7726,14.6,56,100,2.11,ES,1728910635
328,bardai,11.65,7.2333,31.26,41,99,1.17,NG,1728910636
329,novo aripuana,-5.1206,-60.3797,31.53,50,100,1.94,BR,1728910393
330,al hufuf,25.3646,49.5653,39.19,10,0,0.0,SA,1728910638
331,arraial do cabo,-22.9661,-42.0278,24.98,50,40,5.14,BR,1728910639
332,luderitz,-26.6481,15.1594,23.96,45,0,15.85,NA,1728910606
333,diapaga,12.0708,1.7889,32.13,48,9,4.41,BF,1728910641
334,bayanhongor,46.7167,100.1167,0.28,46,12,1.59,MN,1728910642
335,portland,45.5234,-122.6762,13.67,91,0,2.06,US,1728910236
336,port alfred,-33.5906,26.891,18.99,71,65,4.02,ZA,1728910644
337,esquina,-30.0144,-59.5272,25.32,60,100,2.77,AR,1728910645
338,jendouba,36.5011,8.7802,35.01,24,20,1.03,TN,1728910646
339,sanctuary point,-35.1114,150.629,15.22,77,30,5.14,AU,1728910647
340,ventersburg,-28.0856,27.1381,33.7,9,73,3.08,ZA,1728910648
341,tazacorte,28.629,-17.9293,25.54,69,20,3.09,ES,1728910650
342,tadine,-21.55,167.8833,20.28,65,100,6.91,NC,1728910651
343,lakatoro,-16.0999,167.4164,24.59,84,100,7.34,VU,1728910653
344,kwidzyn,53.7249,18.9311,11.86,78,98,6.8,PL,1728910573
345,yemetsk,63.4721,41.7941,4.77,76,100,3.77,RU,1728910655
346,yatou,37.15,122.3833,18.24,94,52,1.33,CN,1728910656
347,pindobacu,-10.7417,-40.3608,29.08,41,19,5.41,BR,1728910657
348,san antonio de pale,-1.4014,5.6325,26.08,78,18,5.68,GQ,1728910658
349,tuy hoa,13.0833,109.3,25.47,94,99,1.74,VN,1728910659
350,durres,41.3231,19.4414,24.1,60,0,4.08,AL,1728910660
351,tual,-5.6667,132.75,27.78,80,89,7.46,ID,1728910661
352,porto novo,6.4965,2.6036,29.9,72,100,2.18,BJ,1728910662
353,kone,-21.0595,164.8658,18.54,72,60,2.61,NC,1728910664
354,jiuquan,39.7432,98.5174,14.13,29,79,3.44,CN,1728910666
355,nar'yan-mar,67.6713,53.087,1.28,98,100,4.41,RU,1728910622
356,tanaina,61.6269,-149.4281,4.35,71,0,4.63,US,1728910668
357,iskateley,67.6803,53.1512,1.33,97,100,4.41,RU,1728910670
358,zlynka,52.4267,31.7378,7.72,88,100,5.36,RU,1728910671
359,carnarvon,-24.8667,113.6333,20.33,68,0,9.23,AU,1728910672
360,afaahiti,-17.75,-149.2833,22.63,80,100,5.27,PF,1728910673
361,polyarnyy,69.1989,33.4478,5.19,86,100,3.91,RU,1728910674
362,haiku-pauwela,20.9219,-156.3051,23.36,92,100,5.36,US,1728910675
363,melfort,52.8667,-104.6177,1.07,80,1,4.63,CA,1728910676
364,alofi,-19.0595,-169.9187,22.94,94,20,2.06,NU,1728910678
365,gaya,24.7833,85.0,25.59,61,5,1.97,IN,1728910679
366,berehomet,48.1788,25.3486,13.71,41,11,3.53,UA,1728910681
367,ilheus,-14.7889,-39.0494,25.9,100,75,3.09,BR,1728910682
368,santa sylvina,-27.8326,-61.1375,24.95,71,100,5.22,AR,1728910683
369,ebon,4.582,168.6964,29.26,75,53,7.42,MH,1728910684
370,santa elena de uairen,4.6167,-61.1333,26.28,49,43,1.95,VE,1728910685
371,ouesso,1.6136,16.0517,26.98,71,99,1.29,CG,1728910687
372,yuktae-dong,40.0247,128.1597,17.31,79,100,1.54,KP,1728910688
373,moron,-34.6534,-58.6198,18.33,85,100,6.26,AR,1728910468
374,qamdo,31.1667,97.2333,5.23,39,65,1.39,CN,1728910690
375,lazarevskoye,43.9061,39.3331,18.89,65,100,2.42,RU,1728910692
376,pakse,15.1167,105.7833,29.08,74,20,1.03,LA,1728910693
377,cumbal,0.9088,-77.7915,7.06,93,40,0.0,CO,1728910694
378,kokkola,63.8385,23.1307,7.24,88,100,1.54,FI,1728910695
379,banchory,57.0517,-2.4882,13.41,67,72,2.85,GB,1728910696
380,okhotsk,59.3833,143.3,2.17,67,100,1.4,RU,1728910697
381,sola,-13.8833,167.55,26.01,85,91,11.6,VU,1728910698
382,hegang,47.4,130.3667,16.7,57,78,7.52,CN,1728910699
383,nhamunda,-2.1861,-56.7131,35.17,34,100,2.24,BR,1728910700
384,sitka,57.0531,-135.33,9.94,71,75,4.63,US,1728910603
385,robore,-18.3333,-59.75,26.05,83,100,0.0,BO,1728910702
386,hadibu,12.65,54.0333,29.11,54,86,1.37,YE,1728910704
387,reggane,26.7158,0.1714,37.56,15,2,5.39,DZ,1728910705
388,kholmsk,47.0511,142.0569,14.54,86,88,6.85,RU,1728910706
389,fortuna,40.5982,-124.1573,13.29,98,100,0.0,US,1728910707
390,ryotsu-minato,38.0833,138.4333,18.68,75,96,1.22,JP,1728910708
391,beboto,8.2668,16.939,30.38,59,46,0.75,TD,1728910709
392,nadi,-17.8,177.4167,25.0,83,75,0.0,FJ,1728910710
393,happy valley-goose bay,53.3168,-60.3315,3.17,87,75,3.6,CA,1728910711
394,fort polk south,31.0511,-93.2158,22.01,94,100,2.06,US,1728910712
395,nyrob,60.733,56.7202,-0.14,72,10,2.15,RU,1728910716
396,bechar,31.6167,-2.2167,17.18,77,40,9.26,DZ,1728910717
397,qarqaraly,49.4058,75.4742,-0.53,44,8,6.15,KZ,1728910718
398,sao jose da coroa grande,-8.8978,-35.1478,27.47,64,53,5.22,BR,1728910720
399,bonthe,7.5264,-12.505,25.71,72,100,2.75,SL,1728910721
400,aldona,15.5833,73.8667,27.88,88,100,1.35,IN,1728910722
401,lerwick,60.1545,-1.1494,8.84,81,100,9.79,GB,1728910688
402,mocimboa,-11.3167,40.35,29.28,57,65,6.46,MZ,1728910724
403,lockhart,28.6194,-81.4426,22.21,97,75,3.09,US,1728910725
404,lubango,-14.9172,13.4925,27.92,30,20,2.57,AO,1728910726
405,mirriah,13.7073,9.1501,35.34,41,0,3.09,NE,1728910727
406,la passe,45.5549,-0.8967,21.55,66,100,1.43,FR,1728910729
407,marsh harbour,26.5412,-77.0636,26.99,81,100,3.39,BS,1728910730
408,arnprior,45.4334,-76.3494,3.12,67,100,5.46,CA,1728910507
409,arkhangel'sk,64.5401,40.5433,4.06,100,100,4.0,RU,1728910620
410,puerto deseado,-47.7503,-65.8938,12.69,43,8,4.23,AR,1728910734
411,samus',56.7475,84.6992,1.24,59,100,2.14,RU,1728910735
412,amga,60.8953,131.9608,-10.85,99,100,1.02,RU,1728910736
413,puerto madryn,-42.7692,-65.0385,17.69,37,100,5.1,AR,1728910737
414,labrador city,52.9463,-66.9114,0.1,87,75,30.85,CA,1728910738
415,saldanha,-33.0117,17.9442,22.03,56,0,15.04,ZA,1728910495
416,susuman,62.7833,148.1667,-8.55,97,100,1.29,RU,1728910740
417,huambo,-12.7761,15.7392,27.89,24,75,2.06,AO,1728910498
418,camana,-16.6228,-72.7111,17.15,87,100,2.93,PE,1728910742
419,waterville,44.552,-69.6317,7.47,99,100,4.63,US,1728910743
420,muisne,0.6,-80.0333,24.59,82,98,3.54,EC,1728910744
421,imbituba,-28.24,-48.6703,21.24,65,98,6.18,BR,1728910574
422,mokwa,9.2833,5.05,28.83,70,97,2.07,NG,1728910746
423,mukalla,14.5425,49.1242,31.64,54,99,5.47,YE,1728910747
424,fetsund,59.929,11.1625,7.72,79,100,2.21,NO,1728910748
425,vilyuysk,63.7553,121.6247,-10.56,93,38,2.66,RU,1728910750
426,xining,36.6167,101.7667,11.99,64,2,3.65,CN,1728910751
427,canutama,-6.5339,-64.3831,32.43,46,58,1.78,BR,1728910752
428,aoulef,26.9667,1.0833,37.4,15,58,4.57,DZ,1728910753
429,linares,-35.85,-71.6,13.25,72,50,2.59,CL,1728910754
430,torremaggiore,41.6907,15.2963,25.64,34,42,1.98,IT,1728910756
431,jutai,-5.1833,-68.9,30.96,52,64,0.52,BR,1728910757
432,sapele,5.8941,5.6767,26.96,81,100,2.66,NG,1728910758
433,villa gesell,-37.2639,-56.973,18.16,66,100,7.85,AR,1728910759
434,nizhneangarsk,55.7833,109.55,-4.21,62,100,4.17,RU,1728910760
435,tweed heads,-28.1817,153.547,17.88,88,75,2.57,AU,1728910761
436,kisangani,0.5167,25.2,26.14,81,100,1.52,CD,1728910762
437,tevriz,57.509,72.4042,0.61,69,76,1.52,RU,1728910763
438,kailua-kona,19.6406,-155.9956,23.98,64,0,2.57,US,1728910765
439,la plata,-34.9215,-57.9545,16.81,81,100,5.2,AR,1728910499
440,novodvinsk,64.4165,40.8122,3.86,93,100,3.79,RU,1728910768
441,somerset,40.5668,-74.5496,14.54,85,100,1.34,US,1728910769
442,twon-brass,4.3151,6.2418,26.55,80,49,4.69,NG,1728910770
443,milot,19.6167,-72.2167,27.94,71,55,1.51,HT,1728910771
444,hastings,50.8552,0.5729,11.86,60,99,7.69,GB,1728910772
445,mhamid,29.82,-5.72,26.87,29,100,7.65,MA,1728910775
446,mgandu,-5.95,34.1333,30.58,14,100,3.57,TZ,1728910776
447,long beach,33.767,-118.1892,17.4,89,100,1.54,US,1728910777
448,ciudad constitucion,25.0369,-111.6644,20.73,75,0,1.82,MX,1728910778
449,shingu,33.7333,135.9833,21.72,82,84,3.85,JP,1728910779
450,port douglas,-16.4833,145.4667,24.03,84,79,4.81,AU,1728910780
451,albertina,-22.2008,-46.6158,27.86,40,96,3.08,BR,1728910781
452,turan,16.0678,108.2208,27.99,78,75,4.12,VN,1728910783
453,barcelos,41.5388,-8.6151,24.48,53,96,1.95,PT,1728910784
454,baymak,52.5933,58.3225,1.81,48,6,3.65,RU,1728910785
455,morant bay,17.8815,-76.4093,28.93,77,24,4.85,JM,1728910786
456,mokhsogollokh,61.4681,128.9203,-5.54,72,98,3.27,RU,1728910787
457,tamalin,21.35,-97.8,19.54,92,0,1.7,MX,1728910788
458,rio grande,-32.035,-52.0986,20.29,76,99,9.05,BR,1728910789
459,sant lluis,39.8526,4.2594,26.22,78,20,4.12,ES,1728910790
460,ust'-kut,56.7938,105.7672,-1.34,50,100,5.04,RU,1728910791
461,kudat,6.8837,116.8477,26.96,89,50,1.03,MY,1728910792
462,chilca,-12.5211,-76.7372,16.91,88,99,1.85,PE,1728910793
463,canguaretama,-6.38,-35.1289,30.49,47,48,7.21,BR,1728910794
464,teknaf,20.8624,92.3058,27.59,78,14,3.88,BD,1728910795
465,dunedin,-45.8742,170.5036,8.78,85,100,2.68,NZ,1728910796
466,demopolis,32.5176,-87.8364,17.97,88,0,2.57,US,1728910797
467,lagos,6.5833,3.75,27.42,80,94,2.07,NG,1728910216
468,queenstown,-31.8976,26.8753,14.98,56,100,4.01,ZA,1728910800
469,klingenthal,50.3667,12.4667,9.6,62,100,2.06,DE,1728910801
470,khash,28.2211,61.2158,27.85,8,0,6.2,IR,1728910536
471,colonel hill,22.7667,-74.2167,28.74,76,100,4.89,BS,1728910803
472,cerritos,33.8583,-118.0648,17.43,86,100,1.54,US,1728910804
473,lazdynai,54.9422,22.4897,10.13,77,100,2.52,RU,1728910805
474,muravlenko,63.7898,74.523,-1.1,93,82,4.94,RU,1728910806
475,karonga,-9.9333,33.9333,30.09,42,15,3.19,MW,1728910807
476,peniche,39.3558,-9.3811,25.67,74,80,3.34,PT,1728910808
477,colonia,50.9333,6.95,11.09,87,20,1.54,DE,1728910810
478,mangalia,43.8,28.5833,19.93,51,100,4.47,RO,1728910811
479,sri madhopur,27.4667,75.6,28.08,19,100,2.43,IN,1728910812
480,kidal,18.4411,1.4078,37.8,18,65,6.18,ML,1728910813
481,banda aceh,5.5577,95.3222,25.68,85,100,6.21,ID,1728910543
482,guerrero negro,27.9769,-114.0611,17.41,90,4,5.01,MX,1728910815
483,tottori,35.5,134.2333,23.04,60,75,3.09,JP,1728910816
484,canton,23.1167,113.25,30.24,55,41,4.39,CN,1728910817
485,sungailiat,-1.85,106.1333,26.24,83,17,0.33,ID,1728910818
486,kiunga,-6.1219,141.2906,23.38,99,100,1.35,PG,1728910819
487,humaita,-7.5061,-63.0208,32.3,48,75,1.53,BR,1728910820
488,balabac,7.9868,117.0645,28.39,76,100,2.68,PH,1728910821
489,montecito,34.4367,-119.6321,16.25,86,100,2.06,US,1728910822
490,portachuelo,-17.35,-63.4,32.5,38,13,4.25,BO,1728910823
491,guajara mirim,-10.7828,-65.3394,26.09,83,50,1.03,BR,1728910825
492,sorong,-0.8833,131.25,26.93,82,100,2.61,ID,1728910567
493,rosa zarate,0.3333,-79.4667,23.6,90,100,0.66,EC,1728910827
494,anamur,36.0751,32.8369,25.07,71,10,3.15,TR,1728910828
495,apan,19.7167,-98.4167,10.39,79,100,1.38,MX,1728910829
496,basse-terre,16.1667,-61.6667,28.58,74,0,3.09,GP,1728910830
497,camacupa,-12.0167,17.4833,34.17,15,72,1.56,AO,1728910831
498,awjilah,29.1081,21.2869,30.4,25,0,6.02,LY,1728910832
499,san andres,12.5847,-81.7006,27.01,78,20,6.17,CO,1728910804
500,kristiansund,63.1115,7.732,8.96,71,40,2.57,NO,1728910834
501,eyl,7.9803,49.8164,31.93,52,39,8.59,SO,1728910835
502,quatre cocos,-20.2078,57.7625,24.06,73,29,7.22,MU,1728910836
503,tadmur,34.5608,38.2805,30.99,25,46,1.35,SY,1728910725
504,k'olito,7.3167,38.0833,22.67,64,100,0.38,ET,1728910838
505,i-n-salah,27.1935,2.4607,40.31,11,5,2.31,DZ,1728910839
506,podgornoye,51.735,39.1496,3.12,100,100,8.0,RU,1728910840
507,egilsstadir,65.2653,-14.3948,0.95,86,75,5.66,IS,1728910841
508,ellsworth,44.5434,-68.4195,9.18,94,100,5.66,US,1728910689
509,timbuktu,16.7735,-3.0074,38.96,20,7,5.73,ML,1728910844
510,piti village,13.4626,144.6933,28.03,88,100,2.41,GU,1728910845
511,pecan plantation,32.3604,-97.6756,19.51,38,0,2.57,US,1728910846
512,bardsir,29.9227,56.5743,24.74,13,100,2.7,IR,1728910847
513,igarka,67.4667,86.5833,-3.62,86,100,7.88,RU,1728910848
514,mankono,8.0586,-6.1897,28.63,65,100,1.62,CI,1728910849
515,hithadhoo,-0.6,73.0833,28.31,73,4,4.3,MV,1728910850
516,murashi,59.3999,48.9615,3.55,50,100,3.64,RU,1728910851
517,slatina,44.4333,24.3667,22.96,28,4,3.6,RO,1728910852
518,ginir,7.1333,40.7,17.77,76,100,1.59,ET,1728910853
519,namtsy,62.7161,129.6658,-5.75,95,100,1.69,RU,1728910854
520,sambava,-14.2667,50.1667,25.61,69,9,5.72,MG,1728910855
521,constitucion,-35.3333,-72.4167,14.96,61,73,1.88,CL,1728910856
522,pandan,14.0453,124.1694,27.24,87,100,2.94,PH,1728910857
523,sao joao da barra,-21.6403,-41.0511,24.05,63,100,4.53,BR,1728910858
524,prince rupert,54.3161,-130.3201,10.83,99,0,5.66,CA,1728910859
525,tshikapa,-6.4167,20.8,30.36,49,91,3.64,CD,1728910860
526,kyshtovka,56.555,76.6271,1.75,56,97,2.64,RU,1728910862
527,paracuru,-3.41,-39.0306,30.59,55,2,7.37,BR,1728910863
528,acapulco de juarez,16.8634,-99.8901,23.19,78,25,2.25,MX,1728910864
529,midvagur,62.0511,-7.1939,10.46,93,100,5.66,FO,1728910865
530,mar del plata,-38.0023,-57.5575,18.3,82,75,4.12,AR,1728910435
531,solhan,38.9634,41.0293,20.55,38,99,5.63,TR,1728910867
532,khovd,48.0056,91.6419,5.79,62,63,0.41,MN,1728910841
533,teluk nibung,3.001,99.8164,25.21,90,95,0.77,ID,1728910869
534,springbok,-29.6643,17.8865,26.64,16,6,5.11,ZA,1728910870
535,malango,-2.9627,119.9001,19.75,98,100,0.53,ID,1728910873
536,quellon,-43.1167,-73.6167,10.19,80,17,1.37,CL,1728910874
537,bikenibeu village,1.3673,173.1241,27.98,78,20,4.12,KI,1728910875
538,sovetskaya gavan',48.9723,140.2878,11.0,64,100,2.58,RU,1728910876
539,chui,-33.6971,-53.4616,18.05,82,100,6.21,UY,1728910878
540,manjeshvar,12.7,74.8833,27.66,86,100,2.57,IN,1728910879
541,san mariano,7.5,126.0,24.06,93,100,1.06,PH,1728910880
542,batyrevo,55.0675,47.6111,7.59,29,0,5.91,RU,1728910881
543,shangqiu,34.45,115.65,21.48,56,7,1.87,CN,1728910882
544,sinop,41.7711,34.8709,13.37,94,100,2.26,TR,1728910884
545,aral,40.5156,81.2636,20.36,22,9,3.08,CN,1728910886
546,fort stockton,30.894,-102.8793,19.86,36,0,4.12,US,1728910887
547,ashmyany,54.425,25.9378,6.5,89,100,4.0,BY,1728910888
548,fernley,39.608,-119.2518,13.2,49,0,1.61,US,1728910890
549,wynyard,-41.0,145.7167,11.34,78,0,7.15,AU,1728910891
550,sainte-rose,16.3324,-61.6979,30.02,74,0,3.09,GP,1728910892
551,arvayheer,46.2639,102.775,1.09,66,14,2.7,MN,1728910893
552,plymouth,41.8334,-70.8328,13.14,95,100,2.06,US,1728910753
553,shubarshi,48.5872,57.1869,6.12,19,0,6.34,KZ,1728910895
554,alesund,62.4723,6.1549,8.52,64,20,1.54,NO,1728910705
555,antsiranana,-12.2787,49.2917,27.09,59,0,7.92,MG,1728910898
556,buala,-8.145,159.5921,26.75,83,31,2.77,SB,1728910899
557,phan rang-thap cham,11.5667,108.9833,26.02,90,100,1.12,VN,1728910864
558,colchani,-20.3,-66.9333,13.1,42,100,4.3,BO,1728910901
559,tqvarch'eli,42.8404,41.6801,17.95,85,100,1.21,GE,1728910902
560,tres palos,18.1833,-101.6167,21.33,93,91,1.31,MX,1728910903
561,nanao,37.05,136.9667,18.65,82,100,1.8,JP,1728910756
562,haldibari,26.3333,88.7667,25.54,73,30,1.34,IN,1728910905
563,galliano,29.4422,-90.2992,16.0,94,0,0.0,US,1728910906
564,nekrasovskoye,57.6766,40.3657,6.94,49,0,4.0,RU,1728910907
